[
  {
    "id": "4df3853022718759f81fff57",
    "title": "Królikarnia",
    "name": "Królikarnia",
    "position": {
      "lat": 52.189091,
      "lng": 21.028411
    }
  },
  {
    "id": "4d35bca5f8c9224b38bbced2",
    "title": "Park Morskie Oko",
    "name": "Park Morskie Oko",
    "position": {
      "lat": 52.205108,
      "lng": 21.026558
    }
  },
  {
    "id": "4c0c8f30b1b676b0f04fdf86",
    "title": "Park Arkadia",
    "name": "Park Arkadia",
    "position": {
      "lat": 52.190699,
      "lng": 21.028534
    }
  },
  {
    "id": "4c1f008feac020a1dd8e4ac2",
    "title": "Park Dreszera",
    "name": "Park Dreszera",
    "position": {
      "lat": 52.197481,
      "lng": 21.021374
    }
  },
  {
    "id": "54e6066a498e5ac59e3e9e5c",
    "title": "Park Promenada",
    "name": "Park Promenada",
    "position": {
      "lat": 52.203866,
      "lng": 21.030054
    }
  }
]